station,latitude,longitude,date,severity
Patna Junction,25.6154,85.1011,2023-12-12,High
Kanpur Central,26.4499,80.3319,2024-01-20,Medium
Howrah Junction,22.5821,88.3426,2023-11-08,High
Itarsi Junction,22.6148,77.7625,2024-01-25,Low
Vizag Station,17.6868,83.2185,2024-02-02,Medium
